,City Name,Cloudiness,Country,Date,Humidity,Latitude,Longitude,Max Temperature,Min Temperature,Wind Speed,City ID
0,Qaanaaq,0,GL,1579657133,48,77.48,-69.36,247.22,247.22,2.57,3831208
1,Rikitea,11,PF,1579657134,78,-23.12,-134.97,299.17,299.17,5.55,4030556
2,Bathsheba,40,BB,1579656595,74,13.22,-59.52,299.15,299.15,5.1,3374083
3,Saskylakh,15,RU,1579657134,95,71.92,114.08,236.82,236.82,2.95,2017155
4,Tahoua,0,NE,1579657134,13,14.89,5.27,295.15,295.15,7.2,2439376
5,Saint George's,20,GD,1579657135,83,12.06,-61.75,299.15,299.15,4.1,3579925
6,Mataura,70,NZ,1579657135,49,-46.19,168.86,298.68,298.68,1.68,6201424
7,Pasan,75,IN,1579657135,54,22.85,82.2,290.97,290.97,2.07,1260210
8,Fortuna,1,US,1579656536,76,40.6,-124.16,284.26,282.59,2.1,5563839
9,Cervo,100,ES,1579657136,1,43.67,-7.41,282.04,279.82,1.79,3125287
10,Leningradskiy,100,RU,1579656392,96,69.38,178.42,249.31,249.31,3.9,2123814
11,Juneau,90,US,1579657046,86,58.3,-134.42,274.15,274.15,1.12,5554072
12,Tautira,40,PF,1579656558,70,-17.73,-149.15,303.15,303.15,5.7,4033557
13,Ushuaia,40,AR,1579656941,75,-54.8,-68.3,281.15,281.15,12.3,3833367
14,Cidreira,100,BR,1579657137,77,-30.18,-50.21,296.97,296.97,10.96,3466165
15,Ancud,0,CL,1579657137,67,-41.87,-73.82,290.15,290.15,6.7,3899695
16,Saldanha,30,ZA,1579657137,77,-33.01,17.94,292.15,292.15,2.6,3361934
17,Hilo,40,US,1579657138,54,19.73,-155.09,300.15,290.93,6.2,5855927
18,Busselton,94,AU,1579657138,36,-33.65,115.33,295.37,289.26,6.6,2075265
19,Lavrentiya,100,RU,1579657138,96,65.58,-171.0,256.15,256.15,2.66,4031637
20,Hobart,100,AU,1579657138,30,-42.88,147.33,297.59,293.71,8.7,2163355
21,Jamestown,90,US,1579657139,85,42.1,-79.24,270.15,263.71,4.1,5122534
22,Tokur,100,RU,1579657139,94,53.13,132.9,252.94,252.94,1.04,2015217
23,Hermanus,98,ZA,1579657139,85,-34.42,19.23,292.59,292.59,3.58,3366880
24,Clyde River,99,CA,1579656855,76,70.47,-68.59,253.15,253.15,10.3,5924351
25,Saint-Philippe,96,RE,1579657140,94,-21.36,55.77,298.15,292.59,1.0,935215
26,Arraial do Cabo,40,BR,1579656870,88,-22.97,-42.03,296.15,296.15,1.5,3471451
27,Walvis Bay,0,NA,1579657140,93,-22.96,14.51,291.48,289.15,1.5,3359638
28,Mitsamiouli,100,KM,1579657140,78,-11.38,43.28,301.72,301.72,11.68,921786
29,Atuona,68,PF,1579657140,74,-9.8,-139.03,300.44,300.44,6.06,4020109
30,Saint-Pierre,100,RE,1579657141,94,-21.34,55.48,298.15,292.59,1.0,935214
31,Oktyabrskiy,100,RU,1579657141,94,54.48,53.47,270.23,270.23,7.52,515879
32,Laas,5,IT,1579656565,73,46.62,10.7,273.71,264.15,1.76,3175096
33,New Norfolk,100,AU,1579656867,30,-42.78,147.06,297.59,293.71,8.7,2155415
34,Bluff,71,NZ,1579657142,49,-46.6,168.33,296.83,296.83,3.1,2206939
35,Bambous Virieux,75,MU,1579656913,94,-20.34,57.76,298.15,298.15,4.28,1106677
36,Kapaa,20,US,1579657142,65,22.08,-159.32,300.15,297.59,4.1,5848280
37,Solwezi,100,ZM,1579657143,98,-12.17,26.39,290.54,290.54,2.13,897045
38,Sao Joao da Barra,100,BR,1579656607,90,-21.64,-41.05,296.1,296.1,2.82,3448903
39,Eskil,14,TR,1579657144,67,38.4,33.41,271.5,271.5,1.85,315218
40,Nago,1,JP,1579657144,64,26.59,127.98,294.15,293.15,3.6,1856068
41,Yellowknife,20,CA,1579657144,76,62.46,-114.35,250.37,250.15,3.6,6185377
42,Kuusamo,96,FI,1579657144,92,65.97,29.18,265.15,265.15,5.1,649924
43,San Patricio,75,MX,1579656875,78,19.22,-104.7,301.15,301.15,2.6,3985168
44,Martapura,20,ID,1579657145,79,-3.42,114.85,302.15,302.15,1.0,1636022
45,Wucheng,97,CN,1579657145,91,29.6,118.17,283.71,283.71,0.85,1791347
46,Skibbereen,75,IE,1579657145,93,51.55,-9.27,280.15,280.15,3.1,2961459
47,Kruisfontein,100,ZA,1579657146,97,-34.0,24.73,290.8,290.8,6.63,986717
48,Vostok,100,RU,1579656884,89,46.49,135.88,263.78,263.78,3.04,2013279
49,Vila Velha,90,BR,1579656919,94,-20.33,-40.29,296.15,296.15,2.6,3445026
50,Plaster Rock,90,CA,1579657146,71,46.91,-67.39,260.37,258.15,3.1,7290171
51,Albany,20,US,1579656916,56,42.6,-73.97,267.04,257.59,1.71,5106841
52,Chokurdakh,85,RU,1579657147,98,70.63,147.92,236.05,236.05,3.47,2126123
53,Sandwick,100,GB,1579657147,75,60.0,-1.25,281.15,279.15,4.6,2638534
54,Chui,100,UY,1579657147,81,-33.7,-53.46,295.6,295.6,4.56,3443061
55,Nordby,100,DK,1579657147,100,55.45,8.4,279.82,279.15,4.6,2616172
56,Rocha,100,UY,1579656590,78,-34.48,-54.33,295.1,295.1,5.58,3440777
57,Derzhavinsk,88,KZ,1579657148,91,51.1,66.32,264.21,264.21,8.67,1524606
58,Midland,90,US,1579656879,87,32.0,-102.08,281.15,279.15,5.1,5526337
59,Lagoa,99,PT,1579656526,70,39.05,-27.98,288.19,288.19,10.07,3372964
60,Thompson,90,CA,1579657149,85,55.74,-97.86,264.15,264.15,3.1,6165406
61,George Town,20,MY,1579656945,74,5.41,100.34,301.15,299.82,2.1,1735106
62,Punta Arenas,19,CL,1579656854,53,-53.15,-70.92,285.15,283.71,3.1,3874787
63,Mar del Plata,90,AR,1579656869,100,-38.0,-57.56,293.15,292.04,3.1,3430863
64,Laguna,90,US,1579657150,71,38.42,-121.42,288.15,280.93,2.1,5364271
65,Whitianga,100,NZ,1579657150,55,-36.83,175.7,299.82,299.82,3.58,2179103
66,San Francisco del Rincon,5,MX,1579657151,34,21.02,-101.85,291.15,291.15,0.59,3986984
67,Anadyr,2,RU,1579657151,75,64.75,177.48,244.26,244.15,2.0,2127202
68,Comodoro Rivadavia,92,AR,1579656994,57,-45.87,-67.5,297.15,297.15,2.1,3860443
69,Storsteinnes,100,NO,1579657151,92,69.24,19.23,273.15,270.93,15.4,3136023
70,Meulaboh,12,ID,1579656422,82,4.14,96.13,300.08,300.08,3.49,1214488
71,Phitsanulok,80,TH,1579657152,83,16.92,100.5,303.71,296.15,1.5,1607707
72,Luderitz,0,NA,1579657152,82,-26.65,15.16,291.15,291.15,1.0,3355672
73,Sorland,40,NO,1579656557,59,67.67,12.69,276.15,276.15,6.2,3137469
74,Yerbogachen,99,RU,1579657153,97,61.28,108.01,244.59,244.59,2.73,2012956
75,Kaitangata,99,NZ,1579657153,73,-46.28,169.85,293.71,293.71,4.07,2208248
76,Tasiilaq,100,GL,1579657153,85,65.61,-37.64,268.15,268.15,18.0,3424607
77,Cayenne,61,GF,1579656574,88,4.93,-52.33,297.15,297.15,1.5,3382160
78,Bafq,0,IR,1579657154,76,31.61,55.41,276.0,276.0,1.05,142255
79,Port Elizabeth,90,ZA,1579656605,100,-33.92,25.57,292.15,292.15,5.1,964420
80,Vaini,20,TO,1579657154,74,-21.2,-175.2,301.15,301.15,5.7,4032243
81,Puerto Ayora,75,EC,1579656859,74,-0.74,-90.35,300.15,298.15,4.1,3652764
82,Aquiraz,84,BR,1579656856,74,-3.9,-38.39,301.15,300.93,3.6,3407407
83,Jacareacanga,100,BR,1579657155,97,-6.22,-57.75,297.1,297.1,0.65,3397763
84,Torbay,20,CA,1579656914,72,47.67,-52.73,263.71,262.15,2.6,6167817
85,Geraldton,20,AU,1579657155,43,-28.77,114.6,296.15,296.15,10.3,2070998
86,Hengyang,100,CN,1579657156,87,26.89,112.61,284.51,284.51,1.32,1808370
87,Abu Samrah,0,SY,1579656885,73,35.3,37.18,276.14,276.14,1.25,172515
88,Hong Kong,40,HK,1579657156,82,22.29,114.16,294.82,290.37,3.1,1819729
89,Port Hueneme,75,US,1579657157,67,34.15,-119.2,288.15,283.15,4.1,5384339
90,Lac du Bonnet,99,CA,1579657157,90,50.25,-96.06,264.82,264.82,3.58,6014443
91,Kotaparh,1,IN,1579657157,69,19.15,82.35,293.75,293.75,1.85,1266029
92,Krasnosel'kup,100,RU,1579656563,95,65.7,82.47,249.3,249.3,7.57,1502073
93,Praia,67,CV,1579657157,77,14.92,-23.51,294.15,294.15,5.7,3374333
94,Richards Bay,39,ZA,1579656967,72,-28.78,32.04,295.05,295.05,3.62,962367
95,Kumul,44,CN,1579656575,78,42.8,93.45,259.93,259.93,0.4,1529484
96,Esperance,90,AU,1579657158,72,-33.87,121.9,289.15,289.15,9.3,2071860
97,Ribeira Grande,56,PT,1579656869,73,38.52,-28.7,285.83,285.83,6.05,3372707
98,Barrow,90,US,1579657159,77,71.29,-156.79,258.15,258.15,4.1,5880054
99,Eureka,1,US,1579656586,76,40.8,-124.16,284.26,282.59,2.1,5563397
100,Constitucion,0,CL,1579657160,75,-35.33,-72.42,286.6,286.6,0.85,3893726
101,Tavricheskoye,75,RU,1579657160,85,54.59,73.64,261.15,261.15,4.0,1489938
102,Honiara,40,SB,1579657160,70,-9.43,159.95,304.15,304.15,3.6,2108502
103,Luganville,40,VU,1579656997,66,-15.53,167.17,302.15,302.15,3.6,2136150
104,Grindavik,90,IS,1579656973,100,63.84,-22.43,279.15,279.15,11.8,3416888
105,Cape Town,20,ZA,1579656842,77,-33.93,18.42,293.15,290.37,2.6,3369157
106,Aksarka,100,RU,1579657161,93,66.56,67.8,258.5,258.5,7.89,1512019
107,Shache,2,CN,1579657162,59,38.42,77.24,266.84,266.84,1.0,1280037
108,Sokoni,75,TZ,1579657162,94,-6.43,39.55,299.15,299.15,5.1,149812
109,Maloy,100,NO,1579657162,75,61.94,5.11,279.15,274.82,7.7,3146487
110,Upernavik,90,GL,1579656571,60,72.79,-56.15,257.7,257.7,2.71,3418910
111,Vila,0,PT,1579657163,75,42.03,-8.16,282.59,278.71,0.5,7117100
112,Amnat Charoen,58,TH,1579657163,78,15.86,104.63,295.37,295.37,3.62,1621060
113,Pogar,100,RU,1579657164,91,52.55,33.26,276.17,276.17,6.85,507875
114,Safford,90,US,1579657164,76,32.83,-109.71,284.15,280.93,1.5,5312476
115,Nouna,100,BF,1579657165,23,12.73,-3.87,296.79,296.79,1.59,2357163
116,Zhaotong,0,CN,1579657165,51,27.32,103.72,282.25,282.25,2.9,1784841
117,Ayagoz,100,KZ,1579657165,93,47.97,80.44,265.35,265.35,6.86,1525988
118,Hualmay,100,PE,1579657165,87,-11.1,-77.61,293.64,293.64,1.22,3939761
119,The Valley,11,AI,1579656930,69,18.22,-63.06,298.15,298.15,3.6,3573374
120,Praia da Vitoria,75,PT,1579657166,87,38.73,-27.07,286.15,286.15,10.13,3372760
121,Ilulissat,94,GL,1579656925,60,69.22,-51.1,261.15,261.15,3.1,3423146
122,Kahului,40,US,1579657166,48,20.89,-156.47,301.15,296.48,6.7,5847411
123,Kushima,75,JP,1579657167,66,31.46,131.23,284.15,283.71,3.1,1895695
124,Saint-Augustin,0,CA,1579657167,77,51.23,-58.65,258.51,258.51,5.23,6137462
125,Springfield,1,US,1579657108,68,37.22,-93.3,272.15,270.37,7.2,4409896
126,Ulaangom,64,MN,1579657167,84,49.98,92.07,251.55,251.55,0.96,1515029
127,Satuk,32,TR,1579657168,90,41.23,32.38,267.03,267.03,1.16,737723
128,Ust-Tsilma,100,RU,1579657168,97,65.44,52.15,268.5,268.5,0.59,477940
129,Klaebu,75,NO,1579657168,74,63.3,10.48,276.15,273.71,19.5,7626381
130,Ponta Delgada,75,PT,1579656879,71,37.73,-25.67,287.15,287.15,5.1,3372783
131,Selkirk,75,CA,1579657017,78,50.14,-96.88,264.82,263.71,7.2,6144054
132,Baharly,0,TM,1579657169,80,38.44,57.43,271.17,271.17,3.38,162158
133,Narsaq,100,GL,1579657170,85,60.92,-46.05,269.15,269.15,2.1,3421719
134,Bilibino,100,RU,1579657170,100,68.05,166.44,238.62,238.62,0.99,2126682
135,Kodiak,75,US,1579657170,68,57.79,-152.41,272.15,272.15,2.1,5866583
136,Ostrovnoy,100,RU,1579657170,92,68.05,39.51,270.13,270.13,12.97,556268
137,Samarai,57,PG,1579657171,54,-10.62,150.67,305.44,305.44,1.62,2132606
138,Tabuk,5,PH,1579656887,70,17.42,121.44,297.52,297.52,5.3,1684803
139,Aswan,0,EG,1579656978,63,24.09,32.91,284.15,284.15,3.6,359792
140,Otane,45,NZ,1579657171,66,-39.88,176.63,295.37,295.37,3.58,2185329
141,Labuhan,0,ID,1579656995,64,-6.88,112.21,303.81,303.81,1.07,8079926
142,Roebourne,0,AU,1579656882,19,-20.78,117.13,311.18,311.18,2.38,2062276
143,East London,12,ZA,1579656871,84,-33.02,27.91,293.65,293.65,4.36,1006984
144,Wad Rawah,0,SD,1579657172,26,15.16,33.14,286.6,286.6,6.97,364071
145,Boende,100,CD,1579657173,54,-0.22,20.87,294.73,294.73,0.97,218680
146,Isawa,75,JP,1579657173,59,35.65,138.63,283.71,275.93,2.1,1861454
147,Hasaki,75,JP,1579657173,64,35.73,140.83,278.15,277.04,4.6,2112802
148,Shenzhen,75,CN,1579657174,72,22.55,114.07,294.82,290.37,3.0,1795565
149,Aklavik,20,CA,1579657174,75,68.22,-135.01,246.15,240.15,2.6,5882953
150,Mahebourg,75,MU,1579657174,94,-20.41,57.7,298.15,298.15,0.69,934322
151,Tuktoyaktuk,5,CA,1579657174,74,69.45,-133.04,240.15,240.15,3.6,6170031
152,Hargeisa,18,SO,1579657175,83,9.56,44.06,285.91,285.91,5.76,57289
153,Tiksi,76,RU,1579657175,90,71.69,128.87,241.19,241.19,1.93,2015306
154,Ahipara,99,NZ,1579657175,66,-35.17,173.17,298.71,298.71,0.45,2194098
155,Port Alfred,32,ZA,1579656864,98,-33.59,26.89,290.93,290.93,0.45,964432
156,Sergeevka,90,KZ,1579657176,94,53.88,67.42,262.63,262.63,5.47,1519385
157,San Jose,90,US,1579656782,76,37.34,-121.89,287.15,283.15,4.6,5392171
158,Shumskiy,100,RU,1579657176,92,54.83,99.13,253.78,253.78,2.24,1491977
159,Guerrero Negro,100,MX,1579656979,80,27.98,-114.06,289.8,289.8,3.51,4021858
160,Myre,100,NO,1579657177,80,69.1,15.95,275.15,270.93,8.7,3145148
161,Huilong,100,CN,1579657177,89,31.81,121.66,284.26,283.15,1.72,1806840
162,Kavieng,13,PG,1579657177,77,-2.57,150.8,301.69,301.69,7.45,2094342
163,Olden,100,NO,1579657178,90,61.84,6.81,276.48,271.48,3.61,3135601
164,Saint George,75,US,1579656676,57,37.1,-113.58,283.71,275.93,1.5,5546220
165,Huarmey,100,PE,1579657178,79,-10.07,-78.15,294.66,294.66,2.09,3939168
166,Burnie,86,AU,1579657178,69,-41.07,145.92,293.71,292.59,4.47,2173125
167,Ganzhou,100,CN,1579657179,97,28.82,115.43,282.08,282.08,0.92,1810637
168,Sanok,34,PL,1579657179,80,49.56,22.21,272.59,268.71,4.1,759591
169,Kutum,0,SD,1579657179,46,14.2,24.67,278.69,278.69,1.94,371745
170,Micheweni,100,TZ,1579657179,83,-4.97,39.83,300.66,300.66,7.29,153955
171,Torrelavega,90,ES,1579657180,93,43.35,-4.05,281.48,280.37,2.6,3107775
172,Sol'-Iletsk,100,RU,1579657180,95,51.16,54.99,270.16,270.16,10.13,491019
173,Muslyumovo,100,RU,1579657180,94,55.3,53.19,271.0,271.0,7.52,524183
174,Hamilton,1,US,1579656630,68,39.18,-84.53,269.82,265.93,1.08,4513583
175,Maniitsoq,100,GL,1579656589,93,65.42,-52.9,267.65,267.65,6.12,3421982
176,Dumraon,0,IN,1579657181,54,25.55,84.15,287.01,287.01,1.06,1272225
177,Castro,100,BR,1579657041,93,-24.79,-50.01,290.15,290.15,2.75,3466704
178,Jardim,100,BR,1579656876,95,-21.48,-56.14,297.23,297.23,2.8,3460087
179,Bonthe,65,SL,1579657182,86,7.53,-12.51,298.85,298.85,1.93,2409914
180,Beloha,47,MG,1579657182,83,-25.17,45.05,293.74,293.74,6.86,1067565
181,Port-Gentil,100,GA,1579657182,80,-0.72,8.78,300.72,300.72,4.72,2396518
182,Zambezi,100,ZM,1579657183,97,-13.54,23.1,291.95,291.95,0.76,895953
183,Umm Kaddadah,0,SD,1579656994,38,13.6,26.69,284.48,284.48,6.41,364933
184,Khovd,87,MN,1579657183,53,48.01,91.64,258.9,258.9,1.94,1516048
185,Kupang,75,ID,1579657183,88,-10.17,123.58,301.15,301.15,2.6,2057087
186,Te Anau,76,NZ,1579656877,77,-45.42,167.72,289.31,289.31,2.51,2181625
187,Severo-Kuril'sk,83,RU,1579657184,75,50.68,156.12,265.72,265.72,4.58,2121385
188,Soligalich,100,RU,1579657184,81,59.08,42.29,270.96,270.96,6.12,491025
189,Longyearbyen,20,SJ,1579657185,60,78.22,15.64,259.15,259.15,5.7,2729907
190,Dikson,100,RU,1579657185,86,73.51,80.55,248.55,248.55,5.08,1507390
191,Kundiawa,100,PG,1579657186,92,-6.02,144.97,288.57,288.57,1.01,2093059
192,Palmer,1,US,1579656586,44,42.16,-72.33,267.15,259.82,0.68,4946620
193,Buchanan,75,LR,1579657186,94,5.88,-10.05,298.15,298.15,2.1,2278158
194,Carberry,75,CA,1579657186,85,49.87,-99.36,266.15,266.15,6.2,5916706
195,Yar-Sale,100,RU,1579656398,93,66.83,70.83,258.88,258.88,8.69,1486321
196,Pierre,1,US,1579657187,86,44.37,-100.35,273.71,271.15,1.5,5767918
197,Port Hawkesbury,90,CA,1579656942,85,45.62,-61.35,263.71,259.82,1.0,6111867
198,Mayo,1,US,1579656928,54,38.89,-76.51,272.59,268.71,2.1,4362001
199,Ucluelet,75,CA,1579657018,93,48.93,-125.55,280.37,277.59,2.1,6171633
200,Kargil,100,IN,1579657188,83,34.57,76.1,252.73,252.73,0.29,1267776
201,Mossamedes,54,AO,1579657188,79,-15.2,12.15,297.23,297.23,5.8,3347019
202,Zuwarah,93,LY,1579657188,68,32.93,12.08,287.43,287.43,6.47,2208425
203,Sinnamary,96,GF,1579656573,76,5.38,-52.95,299.13,299.13,7.02,3380290
204,Port Lincoln,100,AU,1579656910,49,-34.73,135.87,294.43,294.43,8.11,2063036
205,Haines Junction,100,CA,1579656936,97,60.75,-137.51,261.29,261.29,0.75,5969025
206,Carnarvon,0,AU,1579657189,57,-24.87,113.63,297.15,297.15,11.8,2074865
207,Daytona Beach,20,US,1579657105,44,29.21,-81.02,279.26,276.48,6.7,4152872
208,Gardner,1,US,1579657190,66,42.58,-72.0,265.15,258.71,1.19,4937557
209,Thinadhoo,99,MV,1579657190,79,0.53,72.93,301.74,301.74,7.9,1337610
210,Pevek,100,RU,1579657190,93,69.7,170.31,247.79,247.79,0.77,2122090
211,Cap Malheureux,75,MU,1579657190,94,-19.98,57.61,298.15,298.15,3.94,934649
212,Angren,100,UZ,1579657191,97,41.02,70.14,269.05,269.05,0.68,1514581
213,Kota Kinabalu,75,MY,1579657191,70,5.97,116.07,302.15,302.04,2.6,1733432
214,Nome,90,US,1579657191,78,64.5,-165.41,260.15,259.82,3.1,5870133
215,Mufumbwe,100,ZM,1579657192,99,-13.68,24.8,291.27,291.27,1.7,905382
216,Kostroma,75,RU,1579657192,69,57.77,40.93,274.15,274.15,8.0,543878
217,Shingu,40,JP,1579657192,50,33.73,135.98,284.15,284.15,1.5,1847947
218,La Palma,75,US,1579657192,63,33.85,-118.05,290.15,277.59,2.1,5364022
219,Talcahuano,0,CL,1579657193,87,-36.72,-73.12,289.15,289.15,3.1,3870282
220,Whitehorse,90,CA,1579657193,78,60.72,-135.05,261.15,258.71,3.6,6180550
221,Esqueda,100,MX,1579657193,88,30.72,-109.58,279.9,279.9,1.88,4006532
222,Hithadhoo,100,MV,1579657193,78,-0.6,73.08,301.97,301.97,6.17,1282256
223,San Cristobal,40,VE,1579656891,88,7.77,-72.22,299.15,299.15,3.1,3628473
224,Port-Cartier,90,CA,1579657194,71,50.03,-66.87,258.15,258.15,1.0,6111696
225,Kalat,0,PK,1579657194,87,29.02,66.59,273.73,273.73,1.85,1175296
226,Puerto Ayacucho,20,VE,1579656878,62,5.66,-67.62,304.15,304.15,4.1,3629710
227,Willowmore,56,ZA,1579657195,89,-33.29,23.49,287.45,287.45,1.97,939676
228,Nikolskoye,81,RU,1579657195,69,59.7,30.79,275.37,273.71,8.0,546105
229,Areka,8,ET,1579657195,45,7.07,37.7,291.02,291.02,1.73,343593
230,OEstersund,12,SE,1579657195,80,63.18,14.64,273.15,272.15,12.3,2685750
231,Sitka,90,US,1579656784,93,57.05,-135.33,276.15,274.15,1.5,5557293
232,Russell,1,US,1579657196,55,32.35,-85.2,274.15,272.59,1.5,4047434
233,Butaritari,25,KI,1579657196,62,3.07,172.79,302.53,302.53,1.92,2110227
234,Staryy Nadym,100,RU,1579657196,92,65.61,72.68,257.64,257.64,8.23,1490918
235,Padang,21,ID,1579657197,94,-0.95,100.35,296.14,296.14,1.94,1633419
236,Cabo San Lucas,5,MX,1579656928,60,22.89,-109.91,296.15,293.15,2.1,3985710
237,Khatanga,100,RU,1579657197,98,71.97,102.5,241.56,241.56,2.57,2022572
238,Yulara,0,AU,1579657198,23,-25.24,130.99,308.15,308.15,3.6,6355222
239,Jodhpur,0,IN,1579657198,57,26.29,73.03,286.34,286.34,4.83,1268865
240,Paka,40,MY,1579657198,83,4.64,103.44,300.15,299.82,2.1,1734313
241,Lorengau,42,PG,1579657198,75,-2.02,147.27,301.92,301.92,6.85,2092164
242,Menongue,100,AO,1579657199,92,-14.66,17.69,291.44,291.44,0.37,3347353
243,Mangrol,0,IN,1579657199,46,21.12,70.12,293.4,293.4,5.63,1263752
244,Meiganga,42,CM,1579656984,24,6.52,14.3,290.38,290.38,2.95,2227402
245,Kikwit,100,CD,1579657199,93,-5.04,18.82,294.81,294.81,1.3,2314705
246,Vidim,100,RU,1579657200,94,56.41,103.11,247.65,247.65,4.07,2013406
247,Siavonga,100,ZM,1579657200,88,-16.54,28.71,295.79,295.79,4.39,898188
248,Coyhaique,0,CL,1579656974,63,-45.58,-72.07,291.15,291.15,1.5,3894426
249,Port Blair,75,IN,1579656872,80,11.67,92.75,300.56,300.56,6.57,1259385
250,Asau,0,RO,1579657200,64,46.43,26.4,274.15,273.15,2.1,686090
251,Broome,90,US,1579657201,67,42.25,-75.83,267.15,263.71,3.6,5110365
252,Bati,82,ET,1579657201,90,11.18,40.02,289.18,289.18,0.3,342641
253,Chingirlau,100,KZ,1579656601,94,51.09,54.08,271.14,271.14,11.0,610091
254,Namatanai,4,PG,1579657201,70,-3.67,152.43,302.93,302.93,5.11,2090021
255,Mehamn,100,NO,1579657202,85,71.04,27.85,267.16,267.16,13.13,778707
256,Oxapampa,100,PE,1579657202,98,-10.58,-75.4,285.88,285.88,0.89,3933874
257,Bethel,1,US,1579657202,66,41.37,-73.41,271.48,262.59,1.4,5282297
258,Mendi,100,PG,1579657202,99,-6.18,143.65,287.14,287.14,1.48,2090990
259,Carndonagh,100,IE,1579657203,96,55.25,-7.27,281.34,281.34,1.68,2965761
260,Necochea,100,AR,1579656910,96,-38.55,-58.74,291.48,290.93,1.79,3430443
261,Yeppoon,66,AU,1579656899,44,-23.13,150.73,307.15,307.15,3.6,2142316
262,Pisco,100,PE,1579657203,88,-13.7,-76.22,295.15,294.82,1.0,3932145
263,Taoudenni,75,ML,1579657204,29,22.68,-3.98,289.51,289.51,3.52,2450173
264,Flinders,0,AU,1579657204,45,-34.58,150.86,304.15,297.04,6.2,6255012
265,Bredasdorp,100,ZA,1579657204,85,-34.53,20.04,292.59,292.59,3.58,1015776
266,Tobol,25,KZ,1579657205,93,52.68,62.58,262.06,262.06,6.59,1518139
267,Bengkulu,0,ID,1579657035,57,-3.8,102.27,305.0,305.0,0.17,1649150
268,Narsimhapur,57,IN,1579657205,73,22.95,79.2,292.08,292.08,1.45,1261754
269,Sampit,18,ID,1579657205,57,-2.53,112.95,305.24,305.24,1.95,1628884
270,Tanout,0,NE,1579657206,21,14.97,8.89,289.56,289.56,6.34,2439155
271,Koppal,0,IN,1579657206,64,15.35,76.15,293.1,293.1,6.91,1266154
272,Boyolangu,1,ID,1579657206,58,-8.12,111.89,304.58,304.58,0.2,1648082
273,Chokwe,33,MZ,1579657206,85,-24.53,32.98,291.73,291.73,2.1,1048364
274,Long,1,TH,1579657206,94,18.08,99.83,300.37,292.15,0.58,1152322
275,Barra de Tecoanapa,0,MX,1579657207,89,16.52,-98.75,296.79,296.79,0.53,3516171
276,Ornes,75,NO,1579657207,80,66.87,13.71,275.15,274.26,5.1,3143368
277,Bulungu,100,CD,1579657207,92,-4.55,18.6,294.77,294.77,0.94,2316259
278,Sao Luiz Gonzaga,95,BR,1579657207,96,-28.41,-54.96,294.24,294.24,3.12,3448552
279,Tuatapere,62,NZ,1579657208,40,-46.13,167.68,298.97,298.97,2.08,2180815
280,Asbe Teferi,44,ET,1579657208,75,9.08,40.87,284.81,284.81,3.81,343402
281,Acari,100,PE,1579657208,92,-15.43,-74.62,293.14,293.14,1.54,3948613
282,Puerto Colombia,40,CO,1579656990,83,10.99,-74.95,299.15,299.15,3.6,3671497
283,Gladstone,75,AU,1579657209,62,-23.85,151.25,305.15,305.15,5.1,2165478
284,Nanortalik,100,GL,1579657209,88,60.14,-45.24,269.85,269.85,7.06,3421765
285,Sainte-Julienne,90,CA,1579657210,72,45.97,-73.72,267.59,263.71,3.34,6137947
286,Oussouye,100,SN,1579657210,69,12.48,-16.55,297.15,297.15,1.0,2246901
287,Avarua,100,CK,1579657210,94,-21.21,-159.78,299.15,299.15,3.6,4035715
288,Monrovia,75,LR,1579657210,94,6.3,-10.8,298.15,298.15,2.1,2274895
289,Petropavlovsk-Kamchatsky,0,RU,1579657210,60,53.05,158.65,259.15,259.15,2.0,2122104
290,Lerwick,100,GB,1579657211,75,60.15,-1.15,281.15,279.15,4.6,2644605
291,Takoradze,66,GH,1579657211,84,4.88,-1.76,298.04,298.04,0.79,2294915
292,Tura,0,IN,1579656967,55,25.52,90.22,291.29,291.29,1.37,1254046
293,Bulnes,0,CL,1579657212,50,-36.74,-72.3,298.15,289.15,2.6,3897724
294,Salinopolis,96,BR,1579657212,79,-0.61,-47.36,300.66,300.66,8.65,3389822
295,Warner Robins,1,US,1579656976,59,32.62,-83.6,276.15,272.59,2.1,4229476
296,Paamiut,100,GL,1579657213,75,61.99,-49.67,269.09,269.09,11.25,3421193
297,Chaohu,40,CN,1579657213,100,31.6,117.87,278.15,278.15,3.0,1815427
298,Baruun-Urt,100,MN,1579657213,80,46.68,113.28,261.12,261.12,3.08,2032614
299,Lebu,0,CL,1579657213,87,-37.62,-73.65,287.46,287.46,2.18,3883457
300,Arman,0,RU,1579657214,76,59.7,150.17,250.86,250.86,2.32,2127060
301,Alugan,16,PH,1579657214,76,12.22,125.48,299.61,299.61,8.29,1731248
302,Borogontsy,44,RU,1579657214,97,62.67,131.17,241.4,241.4,0.54,2026160
303,Kenai,90,US,1579657215,62,60.55,-151.26,269.15,262.15,2.22,5866063
304,Mandalgovi,0,MN,1579657215,79,45.76,106.27,260.17,260.17,3.33,2030065
305,Tambura,88,SS,1579657215,23,5.6,27.47,290.97,290.97,3.01,366444
306,Norman Wells,20,CA,1579656893,68,65.28,-126.83,247.15,247.15,1.5,6089245
307,Biri,5,PH,1579657216,65,12.68,124.36,299.82,299.82,7.42,1724803
308,Faanui,95,PF,1579657216,77,-16.48,-151.75,301.14,301.14,3.9,4034551
309,Saint Anthony,1,US,1579657216,61,45.02,-93.22,265.37,263.71,4.6,5044290
310,Callaway,1,US,1579657216,55,30.15,-85.57,277.59,273.15,3.1,4149635
311,Barra do Garcas,100,BR,1579657217,90,-15.89,-52.26,296.84,296.84,0.6,3470709
312,Mtwara,100,TZ,1579657217,97,-10.27,40.18,296.76,296.76,2.93,877747
313,Le Port,75,RE,1579657217,94,-20.94,55.29,298.15,292.59,0.81,935616
314,Laredo,90,US,1579657217,51,27.51,-99.51,291.15,289.26,7.2,4705349
315,Vryburg,0,ZA,1579657218,26,-26.96,24.73,290.71,290.71,1.67,942511
316,Kholodnyy,69,RU,1579657218,96,62.72,147.95,237.02,237.02,1.14,2124611
317,Pula,100,HR,1579657218,76,44.87,13.85,279.82,273.15,1.0,3192224
318,Abha,40,SA,1579657218,81,18.22,42.51,284.15,284.15,3.1,110690
319,Bilma,0,NE,1579656903,22,18.69,12.92,287.39,287.39,2.95,2446796
320,Qaqortoq,100,GL,1579657219,85,60.72,-46.03,269.15,269.15,2.1,3420846
321,Fraga,20,ES,1579657219,100,41.52,0.35,280.37,279.82,7.7,3122157
322,Atar,24,MR,1579656982,42,20.52,-13.05,287.83,287.83,3.38,2381334
323,Umea,74,SE,1579657220,64,63.83,20.26,274.15,273.15,8.2,602150
324,Port Hedland,0,AU,1579656938,56,-20.32,118.57,307.15,307.15,6.7,2063042
325,Sao Filipe,67,CV,1579656892,81,14.9,-24.5,293.88,293.88,1.63,3374210
326,Katsuura,75,JP,1579657220,52,35.13,140.3,281.48,277.04,4.6,2112309
327,Gurupa,97,BR,1579657221,99,-1.41,-51.64,295.8,295.8,1.15,3398480
328,Bonito,100,BR,1579657221,95,-21.12,-56.48,295.84,295.84,0.14,3469294
329,Pechenga,75,RU,1579657221,79,69.53,31.17,270.15,270.15,14.4,511865
330,Blackwater,89,AU,1579657222,41,-23.58,148.88,306.96,306.96,2.59,2175403
331,Ponta do Sol,40,PT,1579656855,82,32.67,-17.1,287.15,285.93,3.1,2264557
332,Taltal,15,CL,1579657223,93,-25.4,-70.48,288.89,288.89,0.81,3870243
333,Wattegama,85,LK,1579657223,85,6.8,81.48,298.63,298.63,3.41,1224061
334,Ciudad Lazaro Cardenas,15,MX,1579656770,81,17.96,-102.2,298.13,298.13,0.64,4026082
335,Bandarbeyla,88,SO,1579657223,75,9.49,50.81,297.93,297.93,8.76,64814
336,Codrington,100,AU,1579657224,78,-38.27,141.97,291.08,291.08,9.91,2171099
337,General Roca,20,AR,1579657224,50,-39.03,-67.58,299.15,299.15,2.6,3855065
338,Conceicao do Araguaia,100,BR,1579657224,89,-8.26,-49.26,296.22,296.22,1.25,3401845
339,Qingyang,0,CN,1579657036,65,37.5,121.26,285.37,285.37,0.89,1810920
340,Coquimbo,90,CL,1579657225,88,-29.95,-71.34,290.15,290.15,3.1,3893629
341,Devils Lake,1,US,1579657225,79,48.11,-98.87,270.15,269.15,5.1,5058868
342,Santa Isabel do Rio Negro,20,BR,1579657225,93,-0.41,-65.02,297.28,297.28,0.57,3662489
343,Gunjur,100,GM,1579657225,73,13.2,-16.73,295.15,295.15,2.7,2413419
344,Kudahuvadhoo,88,MV,1579656999,78,2.67,72.89,301.94,301.94,8.22,1337607
345,Ginir,80,ET,1579657226,43,7.13,40.7,285.78,285.78,1.08,336454
346,Minab,69,IR,1579657226,87,27.15,57.08,285.15,285.15,2.1,123941
347,Klaksvik,98,FO,1579657226,93,62.23,-6.59,279.15,279.15,3.1,2618795
348,Bontang,21,ID,1579657227,74,0.13,117.5,301.5,301.5,7.13,1648186
349,Benguela,100,AO,1579657227,86,-12.58,13.41,299.07,299.07,0.59,3351663
350,Finschhafen,100,PG,1579657227,80,-6.6,147.87,301.73,301.73,7.6,2097418
351,Vila do Maio,96,CV,1579657228,77,15.13,-23.22,294.15,294.15,5.7,3374120
352,Waverly,1,US,1579657228,79,42.74,-84.62,269.26,264.82,3.1,5014208
353,Xining,0,CN,1579657228,43,36.62,101.77,266.58,266.58,2.53,1788852
354,Angoche,100,MZ,1579656965,90,-16.23,39.91,296.93,296.93,6.16,1052944
355,Saint-Joseph,100,RE,1579657228,94,-21.37,55.62,298.15,292.59,1.0,6690296
356,Atasu,100,KZ,1579657229,93,48.68,71.64,262.07,262.07,7.35,1526041
357,Moose Factory,75,CA,1579657229,78,51.26,-80.61,265.15,265.15,2.6,6078372
358,Asahikawa,75,JP,1579657229,73,43.77,142.37,270.15,270.15,4.1,2130629
359,Jaguaruna,96,BR,1579657229,79,-28.61,-49.03,293.76,293.76,1.74,3460197
360,Kulhudhuffushi,63,MV,1579657230,74,6.62,73.07,301.89,301.89,8.44,1337613
361,Walla Walla,1,US,1579657230,70,46.06,-118.34,280.15,273.15,3.6,5814916
362,Puerto Cabezas,1,NI,1579657230,88,14.04,-83.39,295.63,295.63,3.11,3617154
363,Birao,0,CF,1579657230,20,10.28,22.79,288.02,288.02,6.01,240210
364,Agustin Codazzi,40,CO,1579657231,74,10.03,-73.24,300.15,300.15,8.2,3792383
365,Ukiah,90,US,1579657231,81,39.15,-123.21,284.82,279.26,1.08,5404476
366,Luba,100,GQ,1579657231,84,3.46,8.55,299.89,299.89,3.68,2309528
367,Luau,100,AO,1579656939,98,-10.71,22.22,291.75,291.75,1.9,876177
368,Komsomolets,45,KZ,1579657232,92,53.75,62.07,262.34,262.34,6.27,1522348
369,Orange,40,US,1579657232,63,33.7,-117.77,290.15,279.26,3.1,5379524
370,Alice Springs,0,AU,1579656640,38,-23.7,133.88,306.15,306.15,4.6,2077895
371,Maragogi,17,BR,1579657233,81,-9.01,-35.22,300.52,300.52,6.06,3395458
372,Hun,34,LY,1579656904,73,29.13,15.95,281.88,281.88,3.12,2216645
373,Karratha,0,AU,1579657233,64,-20.74,116.85,303.34,303.34,7.62,6620339
374,Lufilufi,75,WS,1579657234,83,-13.87,-171.6,302.15,302.04,4.1,4035249
375,Gretna,1,US,1579657234,36,29.91,-90.05,282.15,276.48,3.1,4326575
376,Madang,100,PG,1579657234,81,-5.22,145.8,300.8,300.8,6.99,2091996
377,Lavumisa,30,SZ,1579657234,83,-27.31,31.89,296.15,296.15,0.76,935051
378,Luleburgaz,0,TR,1579657235,86,41.4,27.36,272.59,272.15,0.64,741855
379,Sapa,1,PH,1579657235,74,5.15,120.32,300.75,300.75,4.8,1687343
380,Dillon,1,US,1579657235,43,34.42,-79.37,275.15,273.15,3.1,4576653
381,Lobito,100,AO,1579657235,88,-12.35,13.55,299.06,299.06,1.32,3347939
382,Augusto Correa,100,BR,1579657236,90,-1.02,-46.63,298.08,298.08,3.47,3406961
383,Aykhal,59,RU,1579657236,73,66.0,111.5,237.15,237.15,2.0,2027296
384,Biak,54,ID,1579657236,64,-0.91,122.88,301.36,301.36,3.42,1637001
385,Ekhabi,7,RU,1579657236,86,53.51,142.97,254.77,254.77,5.14,2122614
386,Marawi,52,PH,1579657237,62,8.0,124.29,300.37,300.37,1.34,1701054
387,George,100,ZA,1579657237,93,-33.96,22.46,290.15,290.15,5.7,1002145
388,Kyren,10,RU,1579657237,68,51.68,102.14,253.46,253.46,2.72,2021031
389,Buraidah,0,SA,1579657237,75,26.33,43.98,281.15,281.15,5.7,107304
390,Boa Vista,27,BR,1579657238,61,2.82,-60.67,301.15,301.15,2.6,3664980
391,Sechura,18,PE,1579657238,91,-5.56,-80.82,294.42,294.42,1.82,3691954
392,Provideniya,90,RU,1579657238,78,64.38,-173.3,261.15,261.15,2.0,4031574
393,Sambava,77,MG,1579657238,94,-14.27,50.17,296.5,296.5,0.88,1056899
394,Catia La Mar,85,VE,1579657239,70,10.6,-67.03,294.82,294.82,0.45,3646190
395,Iqaluit,20,CA,1579657053,61,63.75,-68.51,242.59,242.15,5.7,5983720
396,Qinzhou,87,CN,1579657239,79,21.95,108.62,295.03,295.03,6.27,1797551
397,Bairiki Village,75,KI,1579657239,74,1.33,172.98,304.15,304.15,2.6,7601762
398,Muriwai Beach,100,NZ,1579657240,60,-36.82,174.45,296.48,293.71,6.2,2186363
399,Okha,7,RU,1579656897,86,53.57,142.95,254.77,254.77,5.14,2122614
400,Dingle,65,PH,1579657241,79,11.0,122.67,299.13,299.13,6.52,1714733
401,Oloron-Sainte-Marie,90,FR,1579657241,70,43.19,-0.61,282.15,280.15,5.7,2989569
402,Fairbanks,75,US,1579657234,68,64.84,-147.72,251.48,245.15,0.31,5861897
403,Faya,40,SA,1579657242,81,18.39,42.45,284.15,284.15,3.1,110690
404,Quedlinburg,20,DE,1579657242,84,51.78,11.15,276.48,267.59,3.58,2851465
405,Ust-Nera,100,RU,1579657242,99,64.57,143.2,237.51,237.51,1.26,2120048
406,Lita,5,RO,1579657242,79,43.8,24.82,269.15,267.04,3.1,674706
407,Betul,51,IN,1579657243,68,21.92,77.9,294.4,294.4,5.43,1276389
408,Beisfjord,95,NO,1579657243,100,68.38,17.6,273.15,268.15,8.2,3144987
409,Cairns,40,AU,1579657171,74,-16.92,145.77,306.48,297.59,5.1,2172797
410,Quatre Cocos,75,MU,1579656892,94,-20.21,57.76,298.15,298.15,2.23,1106643
411,Shubarshi,97,KZ,1579657244,93,48.59,57.19,267.91,267.91,8.53,608270
412,Changji,89,CN,1579657244,85,44.02,87.32,261.15,261.15,1.0,1529569
413,Vanimo,67,PG,1579657245,80,-2.67,141.3,301.01,301.01,6.36,2084442
414,Airai,84,TL,1579657245,53,-8.93,125.41,301.45,301.45,1.87,1651810
415,Rawson,0,AR,1579657245,63,-43.3,-65.1,292.12,292.12,7.65,3839307
416,Lincoln,1,US,1579656831,68,40.8,-96.67,273.15,268.71,7.2,5072006
417,Batagay-Alyta,100,RU,1579656971,98,67.8,130.41,244.03,244.03,0.33,2027042
418,Sovetskiy,100,RU,1579657246,92,61.36,63.58,260.42,260.42,6.61,1491230
419,Goderich,100,CA,1579657247,79,43.75,-81.72,272.59,265.93,1.34,5962442
420,Souillac,75,MU,1579657247,94,-20.52,57.52,298.15,298.15,0.69,933995
421,Deputatsky,27,RU,1579657247,91,69.3,139.9,240.28,240.28,2.2,2028164
422,Vartej,2,IN,1579657247,35,21.73,72.07,290.03,290.03,4.62,1253381
423,Muroto,75,JP,1579657248,66,33.28,134.15,282.15,282.15,3.1,1856392
424,Mamonit,40,PH,1579657248,65,15.59,120.4,300.15,300.15,5.1,1702215
425,Woodland,90,US,1579656974,93,38.68,-121.77,287.15,281.48,2.6,5410430
426,Cherskiy,100,RU,1579657248,98,68.75,161.3,243.97,243.97,3.16,2126199
427,Poronaysk,27,RU,1579657249,63,49.22,143.12,264.91,264.91,4.14,2121909
428,Evensk,88,RU,1579657249,80,61.95,159.23,247.3,247.3,2.74,2125693
429,Kawalu,26,ID,1579657249,62,-7.38,108.21,302.15,302.15,1.71,1640902
430,Henties Bay,0,NA,1579656924,90,-22.12,14.28,291.48,291.48,0.89,3356832
431,Illapel,0,CL,1579657250,78,-31.63,-71.17,287.88,287.88,0.41,3887344
432,Guane,0,CU,1579657250,74,22.2,-84.09,291.57,291.57,8.16,3557758
433,Kamenka,100,RU,1579657250,96,51.32,42.77,274.82,274.26,8.49,553766
434,Caconda,88,AO,1579657251,95,-13.73,15.07,289.71,289.71,0.65,3351380
435,Rorvik,100,NO,1579657251,89,64.86,11.24,275.37,275.37,2.68,3141310
436,Tessalit,53,ML,1579657252,22,20.2,1.01,292.35,292.35,5.56,2449893
437,Alta Gracia,20,AR,1579657252,78,-31.65,-64.43,296.15,292.59,4.1,3866163
438,Herouville-Saint-Clair,0,FR,1579657252,92,49.21,-0.31,272.15,271.15,1.5,3013403
439,Makakilo City,75,US,1579657252,57,21.35,-158.09,300.15,296.48,4.6,5850554
440,Mount Gambier,100,AU,1579657253,68,-37.83,140.77,293.15,293.15,8.7,2156643
441,Alta Floresta,100,BR,1579656864,95,-9.88,-56.09,296.2,296.2,1.41,6316343
442,Baykit,5,RU,1579657253,94,61.67,96.37,237.09,237.09,1.14,1510689
443,Lashio,0,MM,1579657254,40,22.93,97.75,292.78,292.78,0.1,1314759
444,Nyurba,100,RU,1579657254,98,63.28,118.33,248.1,248.1,1.8,2018735
445,Camacha,40,PT,1579657254,72,33.08,-16.33,288.15,287.15,5.7,2270385
446,Foam Lake,0,CA,1579657254,82,51.65,-103.53,266.24,266.24,3.92,5955084
447,Liwale,100,TZ,1579657254,97,-9.77,37.93,294.8,294.8,1.74,155921
448,Clinton,40,US,1579657203,73,42.59,-82.92,270.37,267.04,4.1,4989133
449,Tateyama,75,JP,1579656862,52,34.98,139.87,281.48,278.71,4.6,1850523
450,Nemuro,20,JP,1579657256,67,43.32,145.57,268.15,268.15,4.1,2128975
451,Bloemhof,0,ZA,1579657256,51,-27.65,25.61,291.51,291.51,4.01,1018673
452,Jalu,0,LY,1579657256,72,29.03,21.55,282.76,282.76,2.99,86049
453,Aksu,31,CN,1579656900,66,41.12,80.26,267.66,267.66,0.68,1529660
454,Jutai,69,BR,1579657256,91,-5.18,-68.9,297.32,297.32,1.05,3663693
455,Newport,90,GB,1579657257,100,51.59,-3.0,279.26,272.04,2.6,2641598
456,Anito,0,PH,1579657257,75,12.45,125.29,299.29,299.29,9.38,1730622
457,Medicine Hat,75,CA,1579656983,100,50.05,-110.67,271.48,269.15,2.13,6071618
458,Lompoc,1,US,1579657258,81,34.64,-120.46,287.15,283.71,2.6,5367788
459,Talnakh,100,RU,1579657258,74,69.49,88.4,242.15,242.15,4.0,1490256
460,High Level,5,CA,1579657258,92,58.52,-117.14,259.15,259.15,1.2,5975004
461,Destin,1,US,1579657258,59,30.39,-86.5,277.04,273.15,3.1,4153188
462,Talaya,100,RU,1579657259,99,61.38,152.75,238.22,238.22,0.2,2120769
463,Banamba,63,ML,1579657259,20,13.55,-7.45,295.77,295.77,3.01,2460546
464,Valparaiso,0,CL,1579657236,82,-33.04,-71.63,289.15,289.15,2.1,3868626
465,Nuuk,90,GL,1579656927,73,64.18,-51.72,269.15,269.15,9.3,3421319
466,Vardo,100,NO,1579657260,81,70.37,31.11,270.25,270.25,15.66,777019
467,Husavik,20,IS,1579657260,74,66.04,-17.34,276.15,276.15,6.2,2629833
468,Gazojak,0,TM,1579657260,63,41.19,61.4,271.48,271.48,4.48,1514792
469,Tsimmerbude,90,RU,1579657261,81,54.67,20.13,280.15,280.15,12.0,485660
470,Mindelo,20,CV,1579657261,77,16.89,-24.98,294.15,294.15,5.1,3374462
471,Krasnyy Yar,90,RU,1579657261,80,46.53,48.35,272.15,272.04,8.0,541349
472,Bud,1,US,1579657261,100,39.45,-86.18,269.82,267.15,2.1,4255151
473,San Nicolas,20,PH,1579657262,69,18.17,120.6,298.15,298.15,2.1,1688859
474,Pochutla,20,MX,1579657262,69,15.74,-96.47,300.15,300.15,5.18,3517970
475,Port Hardy,75,CA,1579656731,93,50.7,-127.42,278.15,278.15,5.1,6111862
476,Yangi Marg`ilon,90,UZ,1579657002,74,40.43,71.72,273.15,273.15,2.1,1513491
477,Gimli,73,CA,1579657263,90,50.63,-96.99,264.82,261.48,3.58,5961417
478,Marzuq,12,YE,1579657263,85,14.4,46.47,286.74,286.74,2.63,72181
479,Fuling,15,CN,1579657263,66,29.7,107.39,283.95,283.95,0.44,1810979
480,Hambantota,89,LK,1579657263,76,6.12,81.12,300.79,300.79,9.9,1244926
481,San-Pedro,83,CI,1579657264,82,4.75,-6.64,300.75,300.75,4.02,2282006
482,Vestmannaeyjar,100,IS,1579657264,92,63.44,-20.27,280.38,280.38,10.6,3412093
483,Sobolevo,100,RU,1579657264,74,54.43,31.9,273.94,273.94,5.94,525426
484,Cassilandia,100,BR,1579657264,90,-19.11,-51.73,296.2,296.2,0.83,3466750
485,Lima,75,PE,1579656784,94,-12.04,-77.03,295.15,295.15,4.1,3936456
486,Kargasok,18,RU,1579657265,96,59.06,80.86,253.55,253.55,4.02,1504382
487,Olbia,20,IT,1579657035,77,40.92,9.49,288.15,288.15,8.2,6540127
488,Sahuaripa,100,MX,1579657265,92,29.05,-109.23,281.73,281.73,0.13,3988265
489,Pitimbu,20,BR,1579657266,83,-7.47,-34.81,300.15,300.15,2.6,3391889
490,Jamame,50,SO,1579657266,82,0.07,42.75,300.43,300.43,10.07,56399
491,Coaticook,90,CA,1579657266,66,45.13,-71.8,263.15,258.71,2.6,5924500
492,Tombouctou,100,ML,1579657266,19,20.0,-3.0,293.77,293.77,3.07,2449066
493,Vasai,40,IN,1579657267,60,19.47,72.8,300.37,297.15,1.5,1253372
494,Kholtoson,9,RU,1579657267,78,50.3,103.31,254.1,254.1,1.19,2022369
495,Lata,84,PT,1579657267,70,40.16,-8.33,284.82,277.59,2.6,2738381
496,Marsh Harbour,25,BS,1579656913,77,26.54,-77.06,292.02,292.02,12.33,3571913
497,Akonolinga,100,CM,1579657268,82,3.77,12.25,290.03,290.03,1.16,2235776
498,Margate,75,GB,1579656935,93,51.38,1.39,278.15,273.15,1.5,2643044
499,Uyemskiy,90,RU,1579657268,100,64.47,40.85,271.15,271.15,4.0,477579
500,Wufeng,100,CN,1579657268,88,27.45,104.83,276.4,276.4,1.43,1784592
501,Raahe,0,FI,1579657269,74,64.68,24.48,272.15,270.93,7.2,640276
502,Black River,40,JM,1579657269,78,18.03,-77.85,300.15,299.26,4.1,3491355
503,Cehu Silvaniei,96,RO,1579657269,100,47.41,23.18,272.15,270.93,3.1,675261
504,Santa Vitoria,92,BR,1579657270,91,-18.84,-50.12,296.26,296.26,0.94,3449749
505,Waddan,34,LY,1579657270,73,29.16,16.14,281.88,281.88,3.12,2209055
506,Dalvik,20,IS,1579656882,74,65.97,-18.53,276.15,276.15,6.2,2632287
507,Soyo,100,AO,1579656946,85,-6.13,12.37,299.81,299.81,2.44,2236967
508,Nioro,100,GM,1579657271,19,13.35,-15.75,296.81,296.81,1.79,2412408
509,Naze,75,JP,1579657271,60,28.37,129.48,293.15,292.15,4.1,1855540
510,Koubia,85,GN,1579657271,30,11.58,-11.9,292.98,292.98,1.43,2418764
511,Winnemucca,90,US,1579656924,42,40.97,-117.74,282.15,278.71,5.7,5710360
512,Katangli,1,RU,1579657272,85,51.71,143.23,259.74,259.74,2.9,2122783
513,Golden,75,US,1579657067,43,39.76,-105.22,280.37,272.04,2.34,5423294
514,Celestun,35,MX,1579657272,72,20.87,-90.4,294.07,294.07,9.5,3531368
515,Nishihara,75,JP,1579657273,64,26.18,127.76,294.15,293.71,3.6,1855342
516,Mareeba,40,AU,1579657273,74,-17.0,145.43,307.04,297.59,5.1,2158767
517,Santa Rosa de Aguan,100,HN,1579657273,77,15.95,-85.72,297.9,297.9,10.74,3601496
518,Novikovo,99,RU,1579657273,92,51.15,37.89,275.01,275.01,7.25,487928
519,Riyadh,0,SA,1579656992,33,24.69,46.72,288.15,288.15,7.2,108410
520,Obo,59,CF,1579657274,20,5.4,26.49,292.09,292.09,3.4,236950
521,Nelson Bay,20,AU,1579656905,62,-32.72,152.15,307.59,302.15,3.6,2155562
522,Sabha,0,LY,1579657274,56,27.04,14.43,283.1,283.1,5.14,2212775
523,Esso,0,RU,1579657275,85,55.93,158.7,253.5,253.5,1.0,2125711
524,Gunnedah,0,AU,1579657275,13,-30.98,150.25,307.15,307.15,5.7,2164206
525,Daru,93,PG,1579657275,74,-9.08,143.21,304.04,304.04,2.46,2098329
526,Ludvika,33,SE,1579657276,59,60.15,15.19,276.48,275.37,6.7,2693759
527,Malynivka,90,UA,1579657276,93,49.82,36.73,275.15,275.15,7.0,793657
528,Trenton,1,US,1579657223,42,40.22,-74.74,272.59,268.15,2.6,5105496
529,Stokmarknes,90,NO,1579657276,93,68.56,14.91,273.15,270.93,0.45,3136690
530,Shenjiamen,100,CN,1579657277,87,29.96,122.3,285.34,285.34,2.95,1795632
531,Alangilanan,40,PH,1579657277,78,9.64,123.11,300.15,300.15,2.1,1731665
532,Emerald,40,AU,1579657277,49,-23.53,148.17,306.48,306.15,4.1,2167426
533,Bodo,75,NO,1579657278,80,67.28,14.4,275.15,271.48,5.1,3160881
534,Thenzawl,90,IN,1579657278,100,23.32,92.75,282.15,282.15,1.5,1254609
535,Zhanaozen,86,KZ,1579657278,93,43.3,52.8,272.01,272.01,6.26,607610
536,Hampton,1,US,1579657279,54,37.03,-76.35,275.15,270.93,1.5,4762894
537,Westport,1,US,1579657279,35,41.14,-73.36,272.59,264.15,2.1,4845585
538,Marsabit,16,KE,1579657279,29,2.33,37.99,299.41,299.41,4.51,187585
539,Hope,1,US,1579657280,64,33.67,-93.59,277.59,275.15,2.1,4115181
540,Havelock,1,US,1579657280,51,34.88,-76.9,275.15,273.15,10.3,4470244
541,College,75,US,1579656912,68,64.86,-147.8,251.48,245.15,0.38,5859699
542,Quthing,26,LS,1579657280,67,-30.4,27.7,288.12,288.12,0.75,932183
543,Teya,100,RU,1579656921,95,60.38,92.63,243.92,243.92,2.43,1489656
544,Galesong,20,ID,1579657281,70,-5.32,119.37,303.15,303.15,1.5,1644605
545,Lakeside,1,US,1579657219,40,30.13,-81.77,278.15,275.15,2.6,4161461
546,Chadiza,100,ZM,1579657281,99,-14.07,32.44,288.86,288.86,1.01,921028
547,Horten,8,NO,1579657282,64,59.42,10.49,277.59,273.15,4.6,3160606
548,Fort Nelson,40,CA,1579657282,84,58.81,-122.7,254.15,254.15,0.96,5955902
549,Boshnyakovo,0,RU,1579657282,75,49.63,142.17,260.69,260.69,1.95,2126493
550,Hokitika,100,NZ,1579656978,79,-42.72,170.97,290.6,290.6,2.98,2206894
551,Palmas Bellas,40,PA,1579657283,83,9.23,-80.09,300.15,297.59,3.1,3703523
552,Road Town,20,VG,1579657283,83,18.42,-64.62,299.15,297.04,3.1,3577430
553,La Rioja,9,AR,1579657284,53,-29.41,-66.85,297.82,297.82,1.67,3848950
554,Kuloy,100,RU,1579657284,86,61.03,42.49,270.96,270.96,5.08,539385
555,Deniliquin,54,AU,1579657284,17,-35.53,144.97,306.94,306.94,9.02,2169068
556,Alexandria,56,EG,1579657246,57,31.22,29.96,283.69,283.69,1.74,361058
557,Guryevsk,90,RU,1579657285,81,54.77,20.61,280.15,280.15,12.0,557906
